[
  {
    "id": "local-carvalho-escola-antiga",
    "nome": "Escola Antiga",
    "local": "Travessão Carvalho",
    "latitude": -29.064242,
    "longitude": -51.289644,
    "descricao": "Antiga construção escolar do Travessão Carvalho, edificação histórica de um pavimento."
  },
  {
    "id": "local-carvalho-salao-comunitario",
    "nome": "Salão Comunitário",
    "local": "Travessão Carvalho",
    "latitude": -29.064518,
    "longitude": -51.290143,
    "descricao": "Salão comunitário do Travessão Carvalho, próximo à Capela Nossa Senhora de Caravaggio."
  },
  {
    "id": "local-linha60-cemiterio",
    "nome": "Cemitério",
    "local": "Linha 60",
    "latitude": -29.084920,
    "longitude": -51.219917,
    "descricao": "Cemitério da comunidade da Linha 60, ao lado da Capela São Bartolomeu."
  },
  {
    "id": "local-linha60-salao-comunitario",
    "nome": "Salão Comunitário",
    "local": "Linha 60",
    "latitude": -29.084911,
    "longitude": -51.219205,
    "descricao": "Salão comunitário da Linha 60, edificação de dois pavimentos com telhado em arco."
  },
  {
    "id": "local-linha60-escolinha-antiga",
    "nome": "Escolinha Antiga",
    "local": "Linha 60",
    "latitude": -29.084658,
    "longitude": -51.219444,
    "descricao": "Antiga escola da Linha 60, situada no Travessão Felisberto da Silva. Atualmente o local abriga a sede da Uvas Tomazzoni."
  },
  {
    "id": "local-linha60-estadio",
    "nome": "Estádio S.E.R. Duque de Caxias",
    "local": "Linha 60",
    "latitude": -29.084276,
    "longitude": -51.220345,
    "descricao": "Estádio da Sociedade Esportiva e Recreativa Duque de Caxias, da Linha 60."
  },
  {
    "id": "local-santa-justina-salao-comunitario",
    "nome": "Salão Comunitário",
    "local": "Santa Justina",
    "latitude": -29.08707,
    "longitude": -51.26088,
    "descricao": "Salão Comunitário Sta. Justina, edificação próxima à Capela Santa Justina."
  },
  {
    "id": "local-santa-justina-torre-igreja",
    "nome": "Torre do Campanário",
    "local": "Santa Justina",
    "latitude": -29.087313,
    "longitude": -51.260738,
    "descricao": "Torre do campanário de Santa Justina, edificação separada da capela. Localiza-se próxima ao cemitério comunitário."
  },
  {
    "id": "local-sao-tiago-torre-igreja",
    "nome": "Torre do Campanário",
    "local": "São Tiago",
    "latitude": -29.1045,
    "longitude": -51.31109,
    "descricao": "Torre sineira da Capela São Tiago, estrutura metálica treliçada com sino, ao lado da capela."
  },
  {
    "id": "local-sao-tiago-cemiterio",
    "nome": "Cemitério",
    "local": "São Tiago",
    "latitude": -29.103932,
    "longitude": -51.310839,
    "descricao": "Cemitério da comunidade de São Tiago, com pequena capela mortuária."
  },
  {
    "id": "local-sao-tiago-salao-comunitario",
    "nome": "Salão Comunitário",
    "local": "São Tiago",
    "latitude": -29.10394,
    "longitude": -51.31128,
    "descricao": "Salão comunitário da comunidade de São Tiago, próximo à capela."
  }
]
